[
  {
    "NumeroFarmacia": "606",
    "Nom": "A. ORTI BRAVO",
    "Tipus": "F",
    "Latitud": "41.3873974",
    "Longitud": "2.168568",
    "Distancia": "0",
    "Adreca": " POTOSÍ, LOCAL C 25,2  , 08030, BARCELONA",
    "Telefon": "931010126",
    "webAddress": "",
    "mobile": "",
    "whatsapp": "",
    "Serveis": "",
    "Oberta": "1",
    "Guardia": null,
    "HorariS": " 09:00-22:00",
    "Horari": " 09:00-22:00"
  },
  {
    "NumeroFarmacia": "516",
    "Nom": "N. ESPONA MESEGUER",
    "Tipus": "F",
    "Latitud": "41.3875009150987",
    "Longitud": "2.16802106732631",
    "Distancia": "47",
    "Adreca": "RB CATALUNYA,1  , 08007, BARCELONA",
    "Telefon": "933171446",
    "webAddress": "http://www.farmaciacatalunya.com",
    "mobile": "669486423",
    "whatsapp": "",
    "Serveis": "Servicios de atención al paciente",
    "Oberta": "1",
    "Guardia": "1",
    "HorariS": " 09:00-21:00",
    "Horari": " 09:00-21:00"
  },
  {
    "NumeroFarmacia": "900",
    "Nom": "M. GARCIA LOPEZ",
    "Tipus": "F",
    "Latitud": "41.4012345",
    "Longitud": "2.1543210",
    "Distancia": "500",
    "Adreca": "AV DIAGONAL, 450  , 08006, BARCELONA",
    "Telefon": "934567890",
    "webAddress": "",
    "mobile": "",
    "whatsapp": "",
    "Serveis": "",
    "Oberta": "1",
    "Guardia": "1",
    "HorariS": " 00:00-23:59",
    "Horari": " 00:00-23:59"
  },
  {
    "NumeroFarmacia": "201",
    "Nom": "J. PUIG SOLER",
    "Tipus": "F",
    "Latitud": "41.3500000",
    "Longitud": "2.1000000",
    "Distancia": "3000",
    "Adreca": "CL MAJOR, 15  , 08820, EL PRAT DE LLOBREGAT",
    "Telefon": "933700011",
    "webAddress": "",
    "mobile": "",
    "whatsapp": "",
    "Serveis": "",
    "Oberta": "1",
    "Guardia": "1",
    "HorariS": " 08:00-14:00 17:00-22:00",
    "Horari": " 08:00-14:00 17:00-22:00"
  },
  {
    "NumeroFarmacia": "301",
    "Nom": "P. FERRER COSTA",
    "Tipus": "F",
    "Latitud": "41.9794005",
    "Longitud": "2.8214500",
    "Distancia": "12000",
    "Adreca": "CL SANTA CLARA, 20  , 17001, GIRONA",
    "Telefon": "972201234",
    "webAddress": "",
    "mobile": "",
    "whatsapp": "",
    "Serveis": "",
    "Oberta": "1",
    "Guardia": "1",
    "HorariS": " 09:00-22:00",
    "Horari": " 09:00-22:00"
  },
  {
    "NumeroFarmacia": "401",
    "Nom": "R. VIDAL MARTINEZ",
    "Tipus": "F",
    "Latitud": "41.6175900",
    "Longitud": "0.6200100",
    "Distancia": "15000",
    "Adreca": "AV BLONDEL, 42  , 25002, LLEIDA",
    "Telefon": "973245678",
    "webAddress": "",
    "mobile": "",
    "whatsapp": "",
    "Serveis": "",
    "Oberta": "1",
    "Guardia": "1",
    "HorariS": " 09:00-21:00",
    "Horari": " 09:00-21:00"
  },
  {
    "NumeroFarmacia": "501",
    "Nom": "L. SANCHEZ RUIZ",
    "Tipus": "F",
    "Latitud": "41.1189000",
    "Longitud": "1.2445000",
    "Distancia": "18000",
    "Adreca": "RB NOVA, 8  , 43001, TARRAGONA",
    "Telefon": "977234567",
    "webAddress": "",
    "mobile": "",
    "whatsapp": "",
    "Serveis": "",
    "Oberta": "1",
    "Guardia": "1",
    "HorariS": " 09:00-22:00",
    "Horari": " 09:00-22:00"
  },
  {
    "NumeroFarmacia": "999",
    "Nom": "",
    "Tipus": "F",
    "Latitud": "41.3900000",
    "Longitud": "2.1700000",
    "Distancia": "100",
    "Adreca": "",
    "Telefon": "",
    "webAddress": "",
    "mobile": "",
    "whatsapp": "",
    "Serveis": "",
    "Oberta": "0",
    "Guardia": "1",
    "HorariS": "",
    "Horari": ""
  }
]
